City_ID,City,Lat,Lng,Max Temp,Humidity,Cloudiness,Wind Speed,Country,Date
0,hun,29.1268,15.9477,25.13,41,49,5.61,LY,1696537608
1,yaren,-0.5472,166.916,28.58,70,67,0.79,NR,1696537608
2,grytviken,-54.2811,-36.5092,4.86,94,100,3.02,GS,1696537608
3,bilibino,68.0546,166.4372,-16.14,95,42,1.85,RU,1696537608
4,ushuaia,-54.8,-68.3,4.81,81,100,5.66,AR,1696537608
5,adamstown,-25.066,-130.1015,20.54,76,1,6.19,PN,1696537608
6,stanley,54.868,-1.6985,15.03,89,75,5.66,GB,1696537608
7,ikwiriri,-7.9562,38.9716,24.0,82,5,2.28,TZ,1696537608
8,susuman,62.7833,148.1667,-1.12,75,35,1.79,RU,1696537609
9,weno,7.4515,151.8468,26.97,89,100,2.57,FM,1696537609
10,qarauyl,48.9451,79.255,8.12,85,1,1.61,KZ,1696537609
11,brookings,44.3114,-96.7984,15.19,54,100,11.32,US,1696537511
12,port lincoln,-34.7333,135.8667,13.11,78,100,5.44,AU,1696537609
13,arkhangel'sk,64.5401,40.5433,6.74,79,100,2.75,RU,1696537442
14,tafresh,34.692,50.013,12.34,35,3,1.2,IR,1696537566
15,castillos,-34.1667,-53.8333,18.5,54,21,4.4,UY,1696537609
16,avarua,-21.2078,-159.775,21.03,100,75,6.17,CK,1696537610
17,biysk,52.5364,85.2072,9.5,84,10,1.3,RU,1696537610
18,vilyuysk,63.7553,121.6247,-3.89,90,52,2.68,RU,1696537398
19,arraial do cabo,-22.9661,-42.0278,24.98,88,0,10.29,BR,1696537531
20,yellowknife,62.456,-114.3525,3.56,84,100,7.72,CA,1696537504
21,contamana,-7.3333,-75.0167,38.51,27,99,2.46,PE,1696537610
22,hawaiian paradise park,19.5933,-154.9731,28.35,74,0,2.06,US,1696537610
23,st. john's,47.5649,-52.7093,9.04,84,35,3.13,CA,1696537327
24,bethel,41.3712,-73.414,25.47,66,0,4.12,US,1696537610
25,nogliki,51.8333,143.1667,7.97,86,100,3.58,RU,1696537467
26,estevan,49.1334,-102.9842,11.19,46,75,13.38,CA,1696537610
27,kodiak,57.79,-152.4072,9.73,87,100,4.63,US,1696537610
28,miquelon,47.0975,-56.3814,12.0,71,0,3.49,PM,1696537611
29,albany,42.6001,-73.9662,27.23,44,39,2.24,US,1696537611
30,port elizabeth,-33.918,25.5701,18.39,95,100,4.12,ZA,1696537429
31,sawakin,19.1059,37.3321,30.21,61,0,3.25,SD,1696537534
32,vadso,70.0744,29.7487,3.09,81,75,16.46,NO,1696537611
33,blackmans bay,-43.0167,147.3167,6.07,77,58,3.82,AU,1696537611
34,waitangi,-43.9535,-176.5597,12.12,93,100,0.89,NZ,1696537611
35,yilan,24.757,121.753,28.09,93,100,2.1,TW,1696537611
36,bredasdorp,-34.5322,20.0403,14.82,87,100,6.69,ZA,1696537611
37,minas de marcona,-15.2119,-75.1103,18.62,65,26,5.3,PE,1696537612
38,tsiombe,-25.3,45.4833,21.34,77,0,2.02,MG,1696537612
39,uturoa,-16.7333,-151.4333,25.78,82,1,10.61,PF,1696537612
40,san patricio,28.017,-97.5169,24.92,62,93,5.62,US,1696537612
41,anadyr,64.75,177.4833,1.28,100,75,3.0,RU,1696537612
42,lazaro cardenas,17.9583,-102.2,30.94,66,43,4.1,MX,1696537612
43,chibougamau,49.9168,-74.3659,18.79,88,40,5.14,CA,1696537612
44,igarka,67.4667,86.5833,1.86,98,100,8.77,RU,1696537612
45,port-aux-francais,-49.35,70.2167,2.91,91,98,13.55,TF,1696537612
46,nova vicosa,-17.8919,-39.3719,26.11,77,50,8.0,BR,1696537613
47,kapuskasing,49.4169,-82.4331,20.05,49,40,5.14,CA,1696537613
48,birjand,32.8663,59.2211,22.26,26,40,4.12,IR,1696537613
49,ankazobe,-18.3167,47.1167,15.0,88,5,2.57,MG,1696537613
50,auki,-8.7676,160.7034,25.1,87,86,3.18,SB,1696537613
51,kingston,17.997,-76.7936,32.53,70,40,3.6,JM,1696537613
52,badger,64.8,-147.5333,1.51,62,75,2.57,US,1696537613
53,ivot,53.6756,34.1872,14.52,56,100,4.65,RU,1696537613
54,qarazhal,48.0078,70.7903,12.72,52,16,3.53,KZ,1696537613
55,plastun,44.7561,136.2939,10.05,90,100,3.13,RU,1696537613
56,port alfred,-33.5906,26.891,17.88,96,100,0.89,ZA,1696537614
57,san agustin de valle fertil,-30.6335,-67.4682,24.29,17,0,6.07,AR,1696537614
58,utrik,11.2278,169.8474,28.13,74,100,6.87,MH,1696537614
59,arua,3.0201,30.9111,19.78,78,63,0.75,UG,1696537614
60,puerto deseado,-47.7503,-65.8938,14.4,36,40,6.29,AR,1696537614
61,matonga,-2.3833,34.0833,25.19,44,81,1.62,TZ,1696537614
62,ribeira grande,38.5167,-28.7,22.1,94,75,18.33,PT,1696537614
63,sandnessjoen,66.0217,12.6316,5.23,75,75,4.12,NO,1696537614
64,carutapera,-1.195,-46.02,28.41,67,20,5.42,BR,1696537614
65,enoch,37.7733,-113.0244,21.14,36,0,3.09,US,1696537615
66,edinburgh of the seven seas,-37.0676,-12.3116,11.4,66,93,4.61,SH,1696537615
67,iqaluit,63.7506,-68.5145,2.85,86,100,15.43,CA,1696537615
68,burao,9.5221,45.5336,26.31,50,99,4.01,SO,1696537528
69,rio grande,-32.035,-52.0986,23.06,53,2,2.1,BR,1696537573
70,tura,25.5198,90.2201,22.29,99,100,1.54,IN,1696537615
71,invercargill,-46.4,168.35,11.83,56,100,4.16,NZ,1696537615
72,puerto natales,-51.7236,-72.4875,5.25,81,75,6.69,CL,1696537615
73,saipan,15.1355,145.701,27.39,78,40,5.66,MP,1696537615
74,longyearbyen,78.2186,15.6401,-3.09,63,75,6.69,SJ,1696537616
75,carnarvon,-24.8667,113.6333,19.49,81,11,4.58,AU,1696537616
76,nemuro,43.3236,145.575,12.62,80,100,10.76,JP,1696537616
77,rano,11.5491,8.5746,28.87,42,75,3.13,NG,1696537616
78,arteche,12.2645,125.4048,24.84,89,75,1.34,PH,1696537616
79,niafunke,15.9322,-3.9906,37.44,19,98,2.67,ML,1696537616
80,newman,37.3138,-121.0208,32.35,37,0,0.89,US,1696537616
81,palikir - national government center,6.9248,158.1611,26.41,89,100,1.54,FM,1696537616
82,abadan,30.3392,48.3043,28.97,34,0,3.09,IR,1696537616
83,queensbury,53.7667,-1.9167,13.78,94,100,7.79,GB,1696537617
84,kuala terengganu,5.3302,103.1408,25.97,94,20,1.54,MY,1696537357
85,east london,-33.0153,27.9116,19.36,91,100,3.73,ZA,1696537617
86,argo,37.6333,22.7333,20.62,50,3,1.51,GR,1696537617
87,wailua homesteads,22.0669,-159.378,28.96,74,40,4.63,US,1696537617
88,muntok,-2.0667,105.1833,26.3,82,91,3.1,ID,1696537617
89,isafjordur,66.0755,-23.124,2.5,92,98,9.43,IS,1696537617
90,ziro,27.6333,93.8333,14.46,100,100,0.43,IN,1696537617
91,chulakkurgan,43.765,69.1814,17.53,32,100,1.37,KZ,1696537618
92,sittwe,20.15,92.9,26.79,88,95,2.3,MM,1696537619
93,alice springs,-23.7,133.8833,6.75,49,0,0.0,AU,1696537619
94,margaret river,-33.95,115.0667,12.65,85,57,3.9,AU,1696537619
95,harstad,68.799,16.5293,2.66,97,100,6.26,NO,1696537619
96,khandyga,62.6667,135.6,-0.55,98,100,2.21,RU,1696537619
97,kayangel,8.0823,134.7173,28.21,78,100,6.25,PW,1696537619
98,sanlucar de barrameda,36.7781,-6.3515,24.05,57,78,1.71,ES,1696537619
99,namdrik,5.5994,168.1028,26.25,84,100,3.68,MH,1696537619
100,lebu,-37.6167,-73.65,12.02,67,35,3.45,CL,1696537619
101,ormeau,-27.7833,153.2667,19.26,84,17,1.83,AU,1696537620
102,la passe,45.5549,-0.8967,16.1,46,99,3.33,FR,1696537620
103,yashkino,55.8736,85.4265,7.2,65,100,2.8,RU,1696537620
104,princeville,45.7668,-61.2985,20.73,79,0,3.09,CA,1696537620
105,petropavlovsk-kamchatsky,53.0452,158.6483,7.47,84,75,4.02,RU,1696537620
106,thompson,55.7435,-97.8558,10.09,71,75,2.57,CA,1696537620
107,cabo san lucas,22.8909,-109.9124,33.17,67,40,7.2,MX,1696537620
108,bassila,9.0081,1.6654,22.9,95,100,1.52,BJ,1696537620
109,saint-die-des-vosges,48.2833,6.95,9.99,67,98,1.27,FR,1696537620
110,college,64.8569,-147.8028,1.56,65,75,2.57,US,1696537620
111,nova sintra,14.8667,-24.7167,23.99,77,48,3.94,CV,1696537621
112,acapulco de juarez,16.8634,-99.8901,31.9,70,20,1.03,MX,1696537621
113,enewetak,11.3474,162.3373,28.26,75,100,5.72,MH,1696537621
114,hermanus,-34.4187,19.2345,15.68,84,100,7.9,ZA,1696537621
115,saldanha,-33.0117,17.9442,15.38,92,5,2.39,ZA,1696537621
116,udachny,66.4167,112.4,-10.59,96,23,1.56,RU,1696537621
117,georgetown,5.4112,100.3354,26.96,92,20,1.03,MY,1696537549
118,queenstown,-31.8976,26.8753,16.79,87,80,2.7,ZA,1696537621
119,walvis bay,-22.9575,14.5053,14.53,88,48,0.51,NA,1696537622
120,vorgashor,67.5833,63.95,3.57,93,100,10.17,RU,1696537622
121,pasni,25.2631,63.471,27.16,88,3,3.48,PK,1696537532
122,oamaru,-45.0784,170.9801,9.65,93,92,3.79,NZ,1696537622
123,pitimbu,-7.4706,-34.8086,27.33,77,31,6.12,BR,1696537622
124,edson,53.5835,-116.4356,6.08,33,0,3.6,CA,1696537622
125,new norfolk,-42.7826,147.0587,6.72,96,69,1.61,AU,1696537622
126,tiksi,71.6872,128.8694,-6.37,92,94,3.64,RU,1696537622
127,marco island,25.9363,-81.7157,34.46,59,0,2.57,US,1696537622
128,serra,-20.1286,-40.3078,25.7,83,20,8.75,BR,1696537622
129,ust-nera,64.5667,143.2,-1.55,73,99,1.34,RU,1696537481
130,ko pha ngan,9.7578,100.0291,25.66,77,100,6.6,TH,1696537622
131,holualoa,19.6228,-155.9522,27.53,71,40,3.09,US,1696537623
132,rikaze,29.25,88.8833,11.15,55,27,1.45,CN,1696537623
133,nuku'alofa,-21.1333,-175.2,22.19,64,20,5.14,TO,1696537623
134,port mathurin,-19.6833,63.4167,22.65,82,99,9.57,MU,1696537623
135,bel ombre,-4.6167,55.4167,27.91,74,20,6.17,SC,1696537623
136,homer,59.6425,-151.5483,10.94,62,100,3.09,US,1696537623
137,tazovsky,67.4667,78.7,7.12,97,100,7.45,RU,1696537623
138,whitehorse,60.7161,-135.0538,1.56,86,100,9.77,CA,1696537623
139,nyurba,63.2842,118.3319,-1.65,77,13,3.58,RU,1696537623
140,mahina,-17.5065,-149.489,28.87,58,20,10.29,PF,1696537623
141,west island,-12.1568,96.8225,24.99,83,40,5.14,CC,1696537624
142,fada,9.5667,8.3,21.58,93,94,1.23,NG,1696537624
143,coronel suarez,-37.4547,-61.9334,21.58,19,58,9.39,AR,1696537624
144,magdagachi,53.45,125.8,1.14,62,0,3.88,RU,1696537625
145,betio village,1.358,172.9211,28.02,74,100,1.82,KI,1696537625
146,dubove,48.1721,23.8895,10.7,71,98,0.13,UA,1696537625
147,iskateley,67.6803,53.1512,3.9,78,53,9.39,RU,1696537423
148,nagqu,31.5,92.0,2.02,71,48,0.64,CN,1696537625
149,puerto aysen,-45.4,-72.7,6.98,98,100,3.08,CL,1696537625
150,ponta delgada,37.7333,-25.6667,23.4,94,40,7.2,PT,1696537626
151,roma,43.2128,-75.4557,28.08,38,0,4.63,US,1696537625
152,hadibu,12.65,54.0333,27.33,72,100,2.42,YE,1696537626
153,okhotsk,59.3833,143.3,4.51,91,100,0.59,RU,1696537413
154,tangalle,6.024,80.7911,24.38,91,100,3.19,LK,1696537626
155,shingu,33.7333,135.9833,14.61,72,100,2.87,JP,1696537626
156,papatowai,-46.5619,169.4708,13.15,54,100,3.13,NZ,1696537626
157,forster,-32.1667,152.5167,7.94,84,0,3.65,AU,1696537626
158,sarandi,-23.4436,-51.8739,26.75,78,75,5.66,BR,1696537626
159,coahuayana de hidalgo,18.7,-103.6583,32.28,66,74,3.47,MX,1696537626
160,matola,-25.9622,32.4589,21.97,83,0,3.6,MZ,1696537627
161,kadugli,11.0167,29.7167,26.61,62,40,0.93,SD,1696537627
162,hammerfest,70.6634,23.6821,2.25,87,100,6.69,NO,1696537627
163,anyksciai,55.5256,25.1026,9.13,81,100,10.3,LT,1696537627
164,goure,13.9835,10.2704,33.22,27,86,7.3,NE,1696537627
165,embi,48.8264,58.1442,14.13,48,100,1.5,KZ,1696537627
166,tolanaro,-25.0319,46.9987,23.04,73,0,8.23,MG,1696537627
167,villa ocampo,-28.4875,-59.3551,24.34,29,0,4.74,AR,1696537627
168,selkirk,50.1436,-96.8845,11.19,83,100,1.79,CA,1696537627
169,coquimbo,-29.9533,-71.3436,15.85,63,40,5.66,CL,1696537620
170,stjordalshalsen,63.4681,10.9262,5.51,93,75,3.6,NO,1696537565
171,biltine,14.5333,20.9167,32.9,24,20,2.43,TD,1696537628
172,buckeye,33.3703,-112.5838,37.44,12,0,4.63,US,1696537628
173,katabu,-4.9333,122.5167,22.45,94,4,1.87,ID,1696537628
174,copala,16.65,-98.9833,29.97,73,42,3.28,MX,1696537628
175,boca do acre,-8.7522,-67.3978,33.9,39,95,1.24,BR,1696537628
176,ciudad lazaro cardenas,17.9583,-102.2,30.94,66,43,4.1,MX,1696537628
177,miyako,39.6367,141.9525,14.16,65,8,8.29,JP,1696537628
178,boca suno,-0.7167,-77.1333,34.77,40,100,1.2,EC,1696537629
179,lihue,21.9789,-159.3672,29.3,68,40,4.63,US,1696537629
180,codrington,-38.2667,141.9667,8.54,66,41,4.65,AU,1696537629
181,richards bay,-28.783,32.0377,22.89,63,0,3.79,ZA,1696537629
182,dudinka,69.4058,86.1778,0.9,92,100,8.49,RU,1696537629
183,nuuk,64.1835,-51.7216,4.34,60,75,7.72,GL,1696537629
184,crane,31.3974,-102.3501,25.73,38,1,4.72,US,1696537629
185,palmer,42.1584,-72.3287,26.05,47,20,4.63,US,1696537629
186,hunstanton,52.95,0.5,15.06,79,100,2.24,GB,1696537629
187,porto velho,-8.7619,-63.9039,35.03,46,40,1.54,BR,1696537615
188,bikin,46.8161,134.26,5.42,89,100,3.57,RU,1696537630
189,ilulissat,69.2167,-51.1,-0.99,55,20,8.75,GL,1696537630
190,cromwell,41.5951,-72.6454,26.4,63,0,4.12,US,1696537630
191,buala,-8.145,159.5921,26.38,81,14,3.04,SB,1696537630
192,port saint john's,-31.6229,29.5448,21.29,87,94,5.33,ZA,1696537630
193,portland,45.5234,-122.6762,25.55,67,0,2.24,US,1696537496
194,pudozh,61.8099,36.5345,7.19,92,100,4.92,RU,1696537630
195,gadzhiyevo,69.2551,33.3362,0.86,73,38,9.81,RU,1696537630
196,xilin hot,43.9667,116.0333,5.15,46,31,1.85,CN,1696537630
197,selfoss,63.9331,-20.9971,5.02,69,100,3.0,IS,1696537631
198,taksimo,56.3444,114.8794,0.95,85,100,0.89,RU,1696537631
199,copan,14.8333,-89.15,34.5,73,47,0.78,HN,1696537631
200,nizhnyaya poyma,56.1622,97.1933,7.13,71,100,3.36,RU,1696537631
201,bardai,11.65,7.2333,26.89,46,73,1.86,NG,1696537631
202,pacific grove,36.6177,-121.9166,35.2,36,0,3.09,US,1696537631
203,pontianak,-0.0333,109.3333,23.99,94,40,1.03,ID,1696537631
204,oriximina,-1.7656,-55.8661,34.31,38,91,0.83,BR,1696537631
205,aral,40.5156,81.2636,19.87,24,0,3.71,CN,1696537631
206,mermoz boabab,14.7065,-17.4758,28.31,77,90,4.43,SN,1696537631
207,olonkinbyen,70.9221,-8.7187,0.87,78,100,7.04,SJ,1696537632
208,sinabang,2.4803,96.3801,25.87,77,100,1.59,ID,1696537632
209,tevriz,57.509,72.4042,11.27,73,54,3.22,RU,1696537632
210,dryden,49.7833,-92.7503,10.16,87,100,2.57,CA,1696537632
211,qaqortoq,60.7167,-46.0333,2.61,59,11,1.0,GL,1696537632
212,ferndale,42.4606,-83.1347,18.96,90,100,1.54,US,1696537632
213,praia,14.9215,-23.5087,28.3,69,0,3.6,CV,1696537394
214,luderitz,-26.6481,15.1594,15.24,83,4,5.96,NA,1696537632
215,ilebo,-4.3167,20.5833,26.0,59,75,0.4,CD,1696537632
216,kalinkavichy,52.1323,29.3257,15.19,46,100,6.57,BY,1696537633
217,piterka,50.6803,47.4454,13.02,86,100,3.99,RU,1696537633
218,khuzdar,27.7384,66.6434,25.34,22,0,3.11,PK,1696537633
219,corinto,37.9407,22.9573,20.8,58,6,0.7,GR,1696537633
220,harrisburg,40.2737,-76.8844,26.08,63,75,5.66,US,1696537521
221,alegrete,-29.7831,-55.7919,19.45,53,0,2.75,BR,1696537633
222,dunedin,-45.8742,170.5036,10.45,99,100,3.58,NZ,1696537633
223,guarapari,-20.6667,-40.4975,25.5,83,100,9.32,BR,1696537633
224,klyuchi,52.2667,79.1667,10.03,56,10,1.09,RU,1696537633
225,naze,28.3667,129.4833,21.51,70,23,4.06,JP,1696537633
226,remire-montjoly,4.9167,-52.2667,32.02,62,0,8.23,GF,1696537634
227,lodja,-3.4833,23.4333,25.46,55,58,1.08,CD,1696537634
228,puerto ayora,-0.7393,-90.3518,25.98,91,66,1.79,EC,1696537634
229,klaksvik,62.2266,-6.589,8.51,82,100,10.76,FO,1696537634
230,punta arenas,-53.15,-70.9167,9.06,49,75,11.83,CL,1696537634
231,kidal,18.4411,1.4078,33.82,18,52,5.51,ML,1696537634
232,alpine,32.835,-116.7664,34.6,19,0,2.57,US,1696537634
233,labytnangi,66.6572,66.4183,5.59,92,92,9.67,RU,1696537634
234,qamdo,31.1667,97.2333,5.37,80,98,0.63,CN,1696537634
235,baidoa,3.1138,43.6498,23.59,82,69,5.9,SO,1696537634
236,sechura,-5.5569,-80.8222,25.23,67,99,6.53,PE,1696537634
237,mirny,62.5353,113.9611,-3.2,73,100,1.79,RU,1696537635
238,fonte boa,-2.4959,-66.2662,35.36,41,99,1.76,BR,1696537635
239,bonny,4.4522,7.1681,26.01,86,94,3.83,NG,1696537635
240,laibin,23.7,109.2667,22.45,76,86,3.85,CN,1696537635
241,alesund,62.4723,6.1549,11.53,76,75,4.12,NO,1696537635
242,shijiang,27.0819,110.7933,18.59,81,100,0.65,CN,1696537635
243,quepos,9.4236,-84.1652,28.08,72,100,1.27,CR,1696537635
244,dakhla,23.6848,-15.958,25.01,61,26,9.26,EH,1696537636
245,ghat,24.9647,10.1728,27.68,23,55,3.1,LY,1696537636
246,nkhotakota,-12.9274,34.2961,24.81,63,5,1.53,MW,1696537636
247,cidreira,-30.1811,-50.2056,17.5,66,5,4.56,BR,1696537636
248,salina,38.8403,-97.6114,26.84,36,0,6.69,US,1696537636
249,akureyri,65.6835,-18.0878,3.96,75,100,1.54,IS,1696537439
250,leitchfield,37.48,-86.2939,19.54,95,100,0.45,US,1696537636
251,heihe,50.2441,127.4902,4.03,76,0,4.65,CN,1696537636
252,vila velha,-20.3297,-40.2925,25.97,89,20,8.75,BR,1696537636
253,chifeng,42.2683,118.9636,8.72,40,44,2.11,CN,1696537636
254,luanda,-8.8368,13.2343,24.0,88,0,3.6,AO,1696537612
255,hirara,24.8,125.2833,26.15,94,40,1.54,JP,1696537637
256,santa terezinha,-29.9002,-50.0904,17.27,71,50,2.72,BR,1696537637
257,woodlake,37.4211,-77.6793,27.21,68,0,3.6,US,1696537637
258,abilene,32.4487,-99.7331,27.32,52,20,5.66,US,1696537637
259,jamestown,42.097,-79.2353,26.77,49,0,5.14,US,1696537637
260,xiva,41.3783,60.3639,18.99,31,100,3.02,UZ,1696537509
261,la mira,18.035,-102.3266,31.04,66,51,4.1,MX,1696537637
262,atafu village,-8.5421,-172.5159,28.33,74,28,3.64,TK,1696537637
263,goianesia,-15.3175,-49.1175,32.9,36,79,2.39,BR,1696537483
264,uchaly,54.2996,59.4521,10.11,84,100,2.65,RU,1696537637
265,yanykurgan,43.915,67.2481,17.1,27,32,2.41,KZ,1696537638
266,tynda,55.1667,124.7167,-0.66,90,13,1.06,RU,1696537638
267,kununurra,-15.7667,128.7333,23.99,83,98,0.0,AU,1696537638
268,boende,-0.2167,20.8667,23.84,91,88,1.16,CD,1696537638
269,loomis,38.8213,-121.193,34.4,32,0,3.6,US,1696537638
270,westport,41.1415,-73.3579,25.25,74,0,3.13,US,1696537638
271,yamada,39.4667,141.95,14.18,64,1,9.93,JP,1696537638
272,portage la prairie,49.9728,-98.2926,12.72,68,75,6.69,CA,1696537638
273,cockburn town,21.4612,-71.1419,29.05,72,0,3.79,TC,1696537639
274,tena,-0.9833,-77.8167,27.09,59,100,0.15,EC,1696537639
275,torredembarra,41.1451,1.3986,24.41,94,20,0.0,ES,1696537639
276,qusmuryn,52.4503,64.6311,12.79,59,64,3.56,KZ,1696537639
277,tabou,4.423,-7.3528,25.11,87,65,2.71,CI,1696537639
278,umluj,25.0213,37.2685,30.4,62,6,3.75,SA,1696537639
279,tadine,-21.55,167.8833,21.38,59,100,6.86,NC,1696537639
280,at-bashi,41.1702,75.8106,9.25,45,84,1.98,KG,1696537639
281,hamilton,39.1834,-84.5333,22.36,86,100,3.09,US,1696537639
282,novyye burasy,52.1324,46.0714,9.26,77,55,2.72,RU,1696537640
283,veinticinco de mayo,-35.4323,-60.1727,24.99,21,75,8.94,AR,1696537526
284,saint-pierre,-21.3393,55.4781,20.82,64,0,4.63,RE,1696537640
285,vila franca do campo,37.7167,-25.4333,23.23,91,100,6.78,PT,1696537640
286,san antonio de pale,-1.4014,5.6325,25.59,84,100,5.8,GQ,1696537640
287,quellon,-43.1167,-73.6167,9.56,83,87,6.2,CL,1696537640
288,ulsteinvik,62.3432,5.8487,11.53,84,86,0.89,NO,1696537640
289,ulan bator,47.9077,106.8832,4.07,65,40,1.0,MN,1696537640
290,matehuala,23.65,-100.65,30.05,31,62,2.33,MX,1696537640
291,rosetta,31.4044,30.4164,24.91,68,0,5.23,EG,1696537549
292,timbiqui,2.7717,-77.6654,28.41,75,97,3.0,CO,1696537642
293,aweil,8.7682,27.4002,22.65,83,99,1.66,SS,1696537642
294,polyarnyy,69.1989,33.4478,1.36,74,54,9.4,RU,1696537642
295,hithadhoo,-0.6,73.0833,27.36,78,71,4.33,MV,1696537643
296,aasiaat,68.7098,-52.8699,-5.32,76,100,4.38,GL,1696537643
297,belmonte,-15.8631,-38.8828,25.98,81,7,5.47,BR,1696537643
298,south lake tahoe,38.9332,-119.9844,20.34,49,0,1.79,US,1696537643
299,kulhudhuffushi,6.6221,73.07,26.71,84,100,8.44,MV,1696537643
300,shizilu,35.1711,118.8289,14.28,52,100,1.73,CN,1696537643
301,guerrero negro,27.9769,-114.0611,28.23,42,61,4.4,MX,1696537644
302,copiapo,-27.3667,-70.3333,15.83,30,2,4.42,CL,1696537644
303,puerto penasco,31.3167,-113.5333,30.2,36,0,2.6,MX,1696537644
304,san isidro,-12.1167,-77.05,20.77,68,0,5.66,PE,1696537644
305,motueka,-41.1333,173.0167,13.39,72,23,0.43,NZ,1696537644
306,el limon,10.3059,-67.6321,28.85,62,78,1.83,VE,1696537644
307,rumonge,-3.9736,29.4386,26.58,55,64,0.2,BI,1696537644
308,middelburg,-25.7751,29.4648,23.17,19,0,2.16,ZA,1696537644
309,tambopata,-12.7333,-69.1833,38.94,37,20,4.63,PE,1696537645
310,nouadhibou,20.931,-17.0347,27.99,47,100,5.66,MR,1696537645
311,thisted,56.9552,8.6949,13.41,75,100,4.78,DK,1696537645
312,sarangani,5.4033,125.4636,28.19,76,87,3.23,PH,1696537645
313,yuzhno-kurilsk,44.0306,145.8556,14.1,73,100,3.16,RU,1696537645
314,glace bay,46.1969,-59.957,18.25,80,100,3.09,CA,1696537645
315,vuktyl,63.8567,57.3094,8.39,94,100,4.92,RU,1696537645
316,san nicolas,18.1725,120.5953,23.95,100,75,1.03,PH,1696537645
317,tessaoua,13.7574,7.9874,33.2,26,38,4.56,NE,1696537645
318,midvagur,62.0511,-7.1939,8.46,87,100,6.69,FO,1696537646
319,lupane,-18.9315,27.807,19.13,20,2,1.66,ZW,1696537646
320,bamboo flat,11.7,92.7167,26.05,94,75,2.06,IN,1696537646
321,fort bragg,35.139,-79.006,27.68,63,100,3.6,US,1696537646
322,maharajgani,26.1167,84.4833,24.08,95,87,1.68,IN,1696537646
323,champerico,14.3,-91.9167,34.3,77,34,6.5,GT,1696537646
324,mount gambier,-37.8333,140.7667,6.01,74,15,1.94,AU,1696537647
325,the pas,53.8251,-101.2541,10.01,66,100,2.57,CA,1696537647
326,shimanovsk,52.0,127.7,1.73,74,1,3.78,RU,1696537647
327,bayganin,48.6947,55.8742,13.66,69,100,2.76,KZ,1696537647
328,vernon,50.2581,-119.2691,19.74,50,86,0.51,CA,1696537647
329,sarikei,2.1167,111.5167,23.94,98,100,0.56,MY,1696537647
330,jabor,5.921,169.6434,25.94,87,100,0.61,MH,1696537647
331,massawa,15.6097,39.45,31.43,67,0,3.39,ER,1696537647
332,korla,41.7597,86.1469,18.07,25,2,4.34,CN,1696537648
333,olavarria,-36.8927,-60.3225,21.61,31,92,6.37,AR,1696537434
334,zambezi,-13.5432,23.1047,26.62,25,75,1.4,ZM,1696537648
335,paciran,-6.8767,112.3761,26.07,83,71,3.05,ID,1696537648
336,bandon,51.7469,-8.7425,15.77,97,100,7.73,IE,1696537648
337,ratnagiri,16.9833,73.3,25.31,91,29,2.96,IN,1696537648
338,san juan,-31.5375,-68.5364,25.96,12,3,8.67,AR,1696537416
339,pont-sainte-maxence,49.3017,2.6047,15.64,63,100,1.58,FR,1696537648
340,saynshand,44.8824,110.1163,9.83,24,100,3.55,MN,1696537649
341,patterson,37.4716,-121.1297,32.64,37,0,2.59,US,1696537649
342,somerset,40.5668,-74.5496,27.12,67,75,2.57,US,1696537649
343,banda aceh,5.5577,95.3222,26.25,84,99,4.96,ID,1696537457
344,tashtyp,52.7939,89.8983,4.85,83,47,1.71,RU,1696537649
345,alibag,18.6411,72.8792,28.04,85,34,1.77,IN,1696537649
346,capao bonito,-24.0058,-48.3494,18.01,95,75,3.9,BR,1696537649
347,mangai,-4.05,19.5333,24.6,63,27,0.93,CD,1696537650
348,kimbe,-5.5502,150.1429,24.44,89,70,2.15,PG,1696537650
349,maxixe,-23.8597,35.3472,21.05,87,0,4.53,MZ,1696537650
350,kuala tungkal,-0.8167,103.4667,26.48,83,9,3.02,ID,1696537650
351,mili,6.0815,171.735,28.0,74,85,1.21,MH,1696537650
352,orange beach,30.2944,-87.5736,28.19,71,40,3.6,US,1696537650
353,khmilnyk,49.5598,27.9575,12.29,54,100,4.21,UA,1696537566
354,acarau,-2.8856,-40.12,28.04,63,50,8.94,BR,1696537651
355,alpena,45.0617,-83.4327,19.14,92,100,4.12,US,1696537651
356,taulaga,-11.0553,-171.0883,27.55,79,24,6.01,AS,1696537651
357,ust'-kulom,61.6864,53.6902,4.32,95,52,1.86,RU,1696537651
358,agadez,19.75,10.25,28.16,19,0,3.49,NE,1696537651
359,constantia,44.1833,28.65,16.5,84,81,3.09,RO,1696537591
360,kill devil hills,36.0307,-75.676,28.0,80,100,3.6,US,1696537653
361,fort st. john,56.2499,-120.8529,5.94,39,75,4.63,CA,1696537653
362,tippi,7.2,35.45,17.75,95,40,1.59,ET,1696537653
363,rio gallegos,-51.6226,-69.2181,10.03,50,75,8.23,AR,1696537654
364,wiecbork,53.3538,17.4906,11.72,83,2,4.31,PL,1696537654
365,atar,20.5169,-13.0499,36.52,13,81,3.64,MR,1696537654
366,sur,22.5667,59.5289,30.6,49,5,4.37,OM,1696537655
367,kupang,-10.1667,123.5833,26.32,69,40,2.57,ID,1696537655
368,sao vicente,-23.9631,-46.3919,23.1,62,100,2.06,BR,1696537356
369,sao raimundo das mangabeiras,-7.0219,-45.4811,39.54,17,63,4.93,BR,1696537655
370,aix-les-bains,45.6834,5.9224,17.31,89,0,0.45,FR,1696537390
371,puerto santa,-8.9906,-78.6456,21.32,81,94,4.8,PE,1696537655
372,flying fish cove,-10.4217,105.6791,23.82,100,100,5.14,CX,1696537655
373,suva,-18.1416,178.4415,21.71,60,75,3.6,FJ,1696537655
374,moroni,-11.7022,43.2551,25.45,83,6,1.26,KM,1696537655
375,ulanhot,46.0833,122.0833,7.05,55,6,3.0,CN,1696537656
376,awjilah,29.1081,21.2869,25.59,38,86,5.4,LY,1696537656
377,aykhal,66.0,111.5,-8.85,92,82,3.58,RU,1696537657
378,muisne,0.6,-80.0333,26.51,74,53,3.87,EC,1696537657
379,namibe,-15.1961,12.1522,19.51,88,69,2.32,AO,1696537657
380,bo phloi,14.3236,99.5161,24.57,93,100,1.2,TH,1696537432
381,baker city,44.7749,-117.8344,20.89,53,0,1.04,US,1696537657
382,mahdia,35.5047,11.0622,24.97,66,0,1.37,TN,1696537657
383,bodo,67.28,14.405,5.02,80,75,9.26,NO,1696537657
384,sabang,5.8933,95.3214,27.49,79,97,7.83,ID,1696537657
385,santa elena de uairen,4.6167,-61.1333,28.65,46,89,2.2,VE,1696537657
386,cill airne,52.05,-9.5167,15.48,99,100,3.03,IE,1696537657
387,shihezi,44.3,86.0333,15.49,46,0,2.56,CN,1696537658
388,yarmolyntsi,49.1924,26.8373,10.04,52,100,3.32,UA,1696537658
389,wajir,1.7471,40.0573,29.87,46,16,9.23,KE,1696537658
390,kismayo,-0.3582,42.5454,25.93,85,10,5.51,SO,1696537658
391,edeia,-17.3383,-49.9314,33.17,36,36,3.86,BR,1696537658
392,usinsk,65.9939,57.5281,5.6,79,99,6.26,RU,1696537658
393,colonia,50.9333,6.95,14.42,83,40,0.51,DE,1696537596
394,talnakh,69.4865,88.3972,0.67,85,100,5.39,RU,1696537658
395,hilo,19.7297,-155.09,28.47,73,0,2.24,US,1696537658
396,pervomaisc,46.7339,29.9586,14.36,68,86,2.98,MD,1696537658
397,nantucket,41.2835,-70.0995,19.49,99,100,3.6,US,1696537659
398,antofagasta,-23.65,-70.4,17.6,69,8,2.98,CL,1696537413
399,lautoka,-17.6167,177.4667,22.92,53,20,5.66,FJ,1696537659
400,yinchuan,38.4681,106.2731,11.77,69,100,1.34,CN,1696537659
401,rawlins,41.7911,-107.2387,15.2,41,75,6.69,US,1696537659
402,grants,35.1473,-107.8514,22.13,15,0,0.0,US,1696537659
403,lae,-6.7221,146.9847,24.37,79,94,1.79,PG,1696537659
404,santana,-0.0583,-51.1817,33.1,52,40,5.66,BR,1696537660
405,kavaratti,10.5669,72.642,27.13,72,26,3.42,IN,1696537660
406,angaur state,6.906,134.13,27.31,80,100,6.14,PW,1696537660
407,tete,-16.1564,33.5867,30.05,37,0,1.54,MZ,1696537660
408,pathein,16.7833,94.7333,25.25,93,99,2.46,MM,1696537660
409,wegorzewo,54.2157,21.7372,10.33,83,80,5.47,PL,1696537660
410,melfort,52.8667,-104.6177,2.07,87,100,8.23,CA,1696537660
411,camana,-16.6228,-72.7111,19.72,79,65,3.49,PE,1696537661
412,sitka,57.0531,-135.33,15.94,77,100,7.2,US,1696537661
413,alo,7.4178,6.7371,24.51,96,100,1.73,NG,1696537662
414,wagga wagga,-35.1167,147.3667,11.58,96,100,0.81,AU,1696537662
415,orapa,-21.2833,25.3667,23.11,11,48,3.91,BW,1696537662
416,salinas,36.6777,-121.6555,37.22,30,0,4.63,US,1696537662
417,lompoc,34.6391,-120.4579,36.08,44,0,3.6,US,1696537662
418,nguigmi,14.2495,13.1092,32.9,30,28,2.92,NE,1696537662
419,sisimiut,66.9395,-53.6735,0.41,64,100,5.64,GL,1696537662
420,barmer,25.75,71.3833,27.31,51,0,4.38,IN,1696537662
421,rabo de peixe,37.8,-25.5833,22.73,94,40,7.2,PT,1696537663
422,itaituba,-4.2761,-55.9836,37.09,41,20,1.02,BR,1696537663
423,mbaiki,3.8678,17.9892,22.51,98,100,0.32,CF,1696537645
424,armstrong,-32.7822,-61.6022,26.17,16,0,4.72,AR,1696537663
425,marat,25.0701,45.4615,28.91,22,0,5.56,SA,1696537663
426,radom,51.4025,21.1471,13.41,88,40,4.12,PL,1696537558
427,phongsali,21.6833,102.1058,15.97,99,28,0.19,LA,1696537663
428,basco,20.4487,121.9702,28.02,78,100,5.07,PH,1696537664
429,phan rang-thap cham,11.5667,108.9833,25.92,90,100,1.79,VN,1696537664
430,wenchang,30.904,118.4887,15.27,83,15,3.67,CN,1696537664
431,ciudad bolivar,8.1222,-63.5497,27.22,81,99,4.71,VE,1696537664
432,mae hong son,19.3003,97.9685,23.34,94,96,0.52,TH,1696537664
433,vorkuta,67.5,64.0,3.83,93,100,10.08,RU,1696537664
434,uliastay,47.7417,96.8444,1.63,92,100,1.03,MN,1696537665
435,zaragoza,41.6561,-0.8773,25.57,34,0,3.6,ES,1696537495
436,tralee,52.2704,-9.7026,15.53,98,100,3.19,IE,1696537665
437,matoury,4.8483,-52.3317,31.98,62,0,8.23,GF,1696537665
438,chistopol',55.3631,50.6424,10.18,67,100,2.69,RU,1696537665
439,atherton,53.5237,-2.4935,16.35,88,100,1.34,GB,1696537665
440,port-vila,-17.7338,168.3219,18.78,94,100,2.06,VU,1696537666
441,pangani,-5.4333,38.9667,24.24,87,7,1.95,TZ,1696537666
442,islamkot,24.6997,70.177,26.35,77,1,6.05,PK,1696537666
443,vilyuchinsk,52.9306,158.4028,8.29,81,32,1.29,RU,1696537666
444,boguchany,58.3814,97.4531,7.7,92,99,3.58,RU,1696537666
445,mildura,-34.2,142.15,11.71,88,76,5.34,AU,1696537666
446,greenville,35.6127,-77.3663,29.09,55,0,1.54,US,1696537666
447,hozat,39.1083,39.2213,10.68,51,95,0.99,TR,1696537666
448,general conesa,-40.1,-64.4333,21.16,15,100,8.89,AR,1696537666
449,keflavik,64.0049,-22.5624,5.95,81,75,3.09,IS,1696537667
450,mayya,61.7333,130.2811,-3.38,96,22,2.09,RU,1696537667
451,mil'kovo,55.6078,37.7956,10.23,77,100,5.46,RU,1696537667
452,elk city,35.412,-99.4043,28.12,23,0,6.17,US,1696537667
453,cleveland,41.4995,-81.6954,26.45,61,100,4.12,US,1696537667
454,tobelo,1.7284,128.0095,25.95,83,76,1.36,ID,1696537667
455,grand falls-windsor,48.9332,-55.6649,10.84,76,53,1.42,CA,1696537667
456,bridlington,54.0831,-0.1919,15.5,97,100,3.58,GB,1696537667
457,masuguru,-11.3667,38.4167,27.23,55,9,3.36,TZ,1696537667
458,nelson bay,-32.7167,152.15,13.33,63,0,5.81,AU,1696537669
459,bahia honda,22.9036,-83.1592,29.45,70,46,3.9,CU,1696537669
460,whakatane,-37.9585,176.9854,16.05,67,36,1.34,NZ,1696537669
461,hawera,-39.5917,174.2833,12.26,92,86,3.3,NZ,1696537669
462,porto empedocle,37.2934,13.5264,22.06,81,1,1.13,IT,1696537669
463,yelizovo,53.1873,158.3805,8.22,100,75,1.0,RU,1696537669
464,happy valley-goose bay,53.3168,-60.3315,20.17,56,20,3.6,CA,1696537467
465,severo-yeniseyskiy,60.3725,93.0408,3.65,97,90,4.92,RU,1696537581
466,togur,58.3631,82.8265,10.08,89,73,4.47,RU,1696537669
467,puerto baquerizo moreno,-0.9,-89.6,27.55,65,75,4.12,EC,1696537669
468,yafran,32.0633,12.5286,19.06,65,0,3.23,LY,1696537670
469,kirakira,-10.4544,161.9205,25.87,84,100,5.17,SB,1696537670
470,sinop,41.7711,34.8709,12.26,81,99,2.1,TR,1696537671
471,fort morgan,40.2503,-103.8,18.68,36,73,2.57,US,1696537671
472,along,28.1667,94.7667,22.83,100,100,0.21,IN,1696537671
473,luang namtha,20.9497,101.4011,21.71,97,57,0.38,LA,1696537671
474,imbituba,-28.24,-48.6703,18.83,85,100,1.37,BR,1696537672
475,birobidzhan,48.8,132.95,5.46,83,100,2.32,RU,1696537672
476,san pedro pochutla,15.7333,-96.4667,29.84,77,92,2.09,MX,1696537673
477,namanga,-2.5433,36.7905,21.66,55,57,4.0,KE,1696537673
478,cassilandia,-19.1133,-51.7342,34.74,31,91,3.75,BR,1696537673
479,nabire,-3.3667,135.4833,24.2,90,99,1.42,ID,1696537673
480,santa ana,33.7456,-117.8678,38.01,38,0,3.6,US,1696537673
481,prince rupert,54.3161,-130.3201,15.05,89,100,7.2,CA,1696537673
482,broken hill,-31.95,141.4333,10.69,89,2,3.79,AU,1696537673
483,anar darah,32.7587,61.654,27.16,22,2,2.98,AF,1696537673
484,farkhar,36.5729,69.8578,21.53,27,100,1.25,AF,1696537673
485,miranda,3.2499,-76.2281,29.07,65,67,0.63,CO,1696537674
486,bobo-dioulasso,11.1771,-4.2979,27.25,89,0,1.03,BF,1696537674
487,tarko-sale,64.9225,77.785,7.22,88,67,7.15,RU,1696537674
488,howard springs,-12.497,131.047,23.95,77,49,2.28,AU,1696537674
489,souillac,-20.5167,57.5167,22.21,68,20,2.57,MU,1696537674
490,hasaki,35.7333,140.8333,16.22,43,89,7.74,JP,1696537674
491,carovigno,40.708,17.655,21.27,72,6,1.85,IT,1696537674
492,tromso,69.6496,18.957,2.01,87,75,4.63,NO,1696537674
493,yarmouth,41.7057,-70.2286,22.86,88,40,3.09,US,1696537674
494,bargaal,11.2864,51.0773,27.4,75,5,3.13,SO,1696537675
495,tazacorte,28.629,-17.9293,23.54,88,0,2.06,ES,1696537675
496,psachna,38.5833,23.6333,19.84,59,13,0.95,GR,1696537675
497,halol,22.5,73.4667,23.51,64,11,2.61,IN,1696537585
498,lamu,-2.2717,40.902,24.12,87,11,4.85,KE,1696537675
499,estes park,40.3772,-105.5217,16.02,39,4,3.58,US,1696537675
500,cabedelo,-6.9811,-34.8339,27.37,78,34,6.02,BR,1696537675
501,khanty-mansiysk,61.0042,69.0019,11.06,58,0,6.0,RU,1696537675
502,riviere-du-loup,47.8304,-69.5342,22.15,68,97,3.09,CA,1696537675
503,west bay,19.3667,-81.4167,32.04,75,40,2.06,KY,1696537676
504,new plymouth,-39.0667,174.0833,10.73,94,96,3.62,NZ,1696537676
505,ishigaki,24.3448,124.1572,27.07,94,20,3.09,JP,1696537577
506,puerto armuelles,8.2833,-82.8667,28.99,74,65,2.24,PA,1696537676
507,sudak,44.85,34.9667,12.55,83,7,2.54,UA,1696537676
508,chandler,33.3062,-111.8412,36.82,13,0,3.09,US,1696537676
509,alofi,-19.0595,-169.9187,22.94,56,40,5.66,NU,1696537676
510,verkhniy baskunchak,48.2256,46.7217,14.25,79,100,4.83,RU,1696537677
511,uribia,11.7139,-72.266,30.7,60,100,5.68,CO,1696537677
512,bondo,3.8146,23.6866,21.09,97,21,0.65,CD,1696537677
513,aksu,41.1231,80.2644,17.81,31,0,2.75,CN,1696537677
514,bubaque,11.2833,-15.8333,27.93,82,86,3.66,GW,1696537677
515,novoishimskiy,53.1981,66.7694,11.14,62,41,3.67,KZ,1696537677
516,al kharijah,25.4514,30.5464,27.64,39,0,4.05,EG,1696537677
517,flin flon,54.7682,-101.865,8.91,87,100,5.66,CA,1696537677
518,lodwar,3.1191,35.5973,31.44,34,14,9.27,KE,1696537678
519,mo i rana,66.3128,14.1428,2.4,92,40,2.24,NO,1696537502
520,labrador city,52.9463,-66.9114,18.95,68,75,6.17,CA,1696537678
521,akrehamn,59.2667,5.1833,13.01,82,75,5.14,NO,1696537678
522,karditsa,39.3656,21.9217,17.77,59,96,0.86,GR,1696537416
523,troitskaya,43.3056,44.9789,17.87,57,30,0.45,RU,1696537678
524,bata,1.8639,9.7658,25.77,88,100,3.36,GQ,1696537678
525,brisas de zicatela,15.8369,-97.0419,31.29,51,40,4.12,MX,1696537678
526,fort-shevchenko,44.5086,50.263,18.39,70,4,3.84,KZ,1696537679
527,kailua-kona,19.6406,-155.9956,29.6,71,40,3.09,US,1696537679
528,colares,38.7992,-9.4469,24.8,26,0,6.17,PT,1696537679
529,malango,-2.9627,119.9001,19.19,89,10,0.87,ID,1696537679
530,podporozh'ye,60.9112,34.1706,5.97,98,97,0.97,RU,1696537679
531,bosansko grahovo,44.1794,16.3639,15.36,82,53,1.91,BA,1696537679
532,qina,26.1642,32.7267,30.43,32,0,3.19,EG,1696537679
533,aradippou,34.95,33.5917,24.69,62,0,2.57,CY,1696537680
534,sitia,35.2,26.0986,22.21,67,0,4.91,GR,1696537680
535,mana,5.6592,-53.7767,28.5,77,100,5.3,GF,1696537680
536,mancio lima,-7.6142,-72.8958,39.04,35,75,4.12,BR,1696537680
537,xiazhuang,34.9161,118.6389,14.89,50,100,2.3,CN,1696537680
538,bilgoraj,50.5411,22.722,12.64,66,97,4.44,PL,1696537403
539,gaigeturi,33.4644,126.3183,17.03,67,75,3.09,KR,1696537680
540,kontcha,7.9667,12.2333,23.0,92,100,1.49,CM,1696537680
541,garissa,-0.4536,39.6401,26.15,67,62,8.13,KE,1696537681
542,hami,42.8,93.45,16.2,40,6,3.41,CN,1696537681
543,smithers,54.7804,-127.1743,9.18,87,100,3.09,CA,1696537681
544,baotou,40.6522,109.8222,12.17,49,100,2.11,CN,1696537681
545,tofol,5.3248,163.0078,28.51,74,100,5.18,FM,1696537681
546,makokou,0.5738,12.8642,22.08,96,100,0.62,GA,1696537681
547,hobyo,5.3505,48.5268,26.71,81,43,6.91,SO,1696537681
548,las khorey,11.1595,48.1967,30.23,70,15,2.46,SO,1696537682
549,vel'sk,61.0701,42.0983,10.15,73,100,4.47,RU,1696537682
550,touros,-5.1989,-35.4608,26.14,75,59,6.24,BR,1696537682
551,dickinson,29.4608,-95.0513,25.09,84,100,3.6,US,1696537682
552,tucuma,-0.1833,-50.05,30.37,59,9,5.97,BR,1696537682
553,quesnel,52.9999,-122.5029,11.28,76,100,2.06,CA,1696537683
554,karwar,14.8,74.1333,25.44,90,96,3.25,IN,1696537683
555,xuddur,4.1213,43.8894,24.77,75,93,5.92,SO,1696537683
556,galesong,-5.3166,119.3661,22.01,70,3,1.96,ID,1696537684
557,rockdale,33.6501,-84.0166,28.56,51,0,1.54,US,1696537684
558,huarmey,-10.0681,-78.1522,22.64,77,34,4.78,PE,1696537526
559,jwaneng,-24.6004,24.7303,22.11,14,62,4.84,BW,1696537684
560,puerto rico,-26.796,-55.024,25.7,38,32,0.51,AR,1696537684
561,gamba,-2.65,10.0,24.67,89,98,3.16,GA,1696537684
562,oranjemund,-28.55,16.4333,15.09,90,20,4.08,NA,1696537587
563,kizel,59.0471,57.6477,4.86,89,43,0.77,RU,1696537684
564,cedeira,43.6797,-8.0209,17.8,75,5,0.63,ES,1696537684
565,kijang,35.2442,129.2139,10.85,49,21,2.3,KR,1696537684
566,ancud,-41.8697,-73.8203,9.91,76,99,5.9,CL,1696537685
567,aripuana,-9.1667,-60.6333,40.45,18,90,2.01,BR,1696537685
568,ungsang-nodongjagu,42.3578,130.4622,11.12,43,0,7.33,KP,1696537685
569,pizarro,4.9533,-77.366,27.12,82,94,2.35,CO,1696537685
570,saudarkrokur,65.7461,-19.6394,2.89,74,84,2.05,IS,1696537685
571,fale old settlement,-9.3852,-171.2468,28.2,73,13,2.99,TK,1696537685
572,hola,51.5377,23.1902,14.1,76,71,6.01,PL,1696537685
573,la junta,37.985,-103.5438,22.88,27,0,3.09,US,1696537686
574,yamba,-5.9,22.3,27.12,40,84,0.96,CD,1696537686
575,yakeshi,49.2833,120.7333,2.75,70,0,0.21,CN,1696537686
576,eyl,7.9803,49.8164,27.16,76,79,7.11,SO,1696537686
577,pisco,-13.7,-76.2167,20.57,83,75,3.09,PE,1696537686
578,bom jesus,-9.0744,-44.3586,38.19,20,95,4.11,BR,1696537686
579,potoci,43.4086,17.8786,18.73,77,0,1.03,BA,1696537686
580,zyrya,40.3661,50.2917,16.05,54,0,3.41,AZ,1696537686
581,orkney,-26.9802,26.6727,22.37,16,0,1.94,ZA,1696537686
582,banjarmasin,-3.3244,114.591,24.08,92,20,1.77,ID,1696537566
583,ad-damazin,11.7891,34.3592,26.57,72,2,3.27,SD,1696537687
584,kapa'a,22.0752,-159.319,29.71,74,40,4.63,US,1696537687
